{
  "type": "FeatureCollection",
  "features": [
    {
      "type": "Feature",
      "properties": {
        "name": "Aachen",
        "year": 1880,
        "class": "L5",
        "mass": 21
      },
      "geometry": {
        "type": "Point",
        "coordinates": [
          6.08333,
          50.775
        ]
      }
    },
    {
      "type": "Feature",
      "properties": {
        "name": "Aarhus",
        "year": 1951,
        "class": "H6",
        "mass": 720
      },
      "geometry": {
        "type": "Point",
        "coordinates": [
          10.23333,
          56.18333
        ]
      }
    },
    {
      "type": "Feature",
      "properties": {
        "name": "Abee",
        "year": 1952,
        "class": "EH4",
        "mass": 107000
      },
      "geometry": {
        "type": "Point",
        "coordinates": [
          -113,
          54.21667
        ]
      }
    },
    {
      "type": "Feature",
      "properties": {
        "name": "Acapulco",
        "year": 1976,
        "class": "Acapulcoite",
        "mass": 1914
      },
      "geometry": {
        "type": "Point",
        "coordinates": [
          -99.9,
          16.88333
        ]
      }
    },
    {
      "type": "Feature",
      "properties": {
        "name": "Achiras",
        "year": 1902,
        "class": "L6",
        "mass": 780
      },
      "geometry": {
        "type": "Point",
        "coordinates": [
          -64.95,
          -33.16667
        ]
      }
    },
    {
      "type": "Feature",
      "properties": {
        "name": "Adhi Kot",
        "year": 1919,
        "class": "EH4",
        "mass": 4239
      },
      "geometry": {
        "type": "Point",
        "coordinates": [
          71.8,
          32.1
        ]
      }
    },
    {
      "type": "Feature",
      "properties": {
        "name": "Adzhi-Bogdo stone",
        "year": 1949,
        "class": "LL3-6",
        "mass": 910
      },
      "geometry": {
        "type": "Point",
        "coordinates": [
          95.16667,
          44.83333
        ]
      }
    },
    {
      "type": "Feature",
      "properties": {
        "name": "Agen",
        "year": 1814,
        "class": "H5",
        "mass": 30000
      },
      "geometry": {
        "type": "Point",
        "coordinates": [
          0.61667,
          44.21667
        ]
      }
    },
    {
      "type": "Feature",
      "properties": {
        "name": "Aguada",
        "year": 1930,
        "class": "L6",
        "mass": 1620
      },
      "geometry": {
        "type": "Point",
        "coordinates": [
          -65.23333,
          -31.6
        ]
      }
    },
    {
      "type": "Feature",
      "properties": {
        "name": "Aguila Blanca",
        "year": 1920,
        "class": "L",
        "mass": 1440
      },
      "geometry": {
        "type": "Point",
        "coordinates": [
          -64.55,
          -30.86667
        ]
      }
    },
    {
      "type": "Feature",
      "properties": {
        "name": "Aioun el Atrouss",
        "year": 1974,
        "class": "Diogenite-pm",
        "mass": 1000
      },
      "geometry": {
        "type": "Point",
        "coordinates": [
          -9.57028,
          16.39806
        ]
      }
    },
    {
      "type": "Feature",
      "properties": {
        "name": "Aïr",
        "year": 1925,
        "class": "L6",
        "mass": 24000
      },
      "geometry": {
        "type": "Point",
        "coordinates": [
          8.38333,
          19.08333
        ]
      }
    },
    {
      "type": "Feature",
      "properties": {
        "name": "Aire-sur-la-Lys",
        "year": 1769,
        "class": "Unknown",
        "mass": ""
      },
      "geometry": {
        "type": "Point",
        "coordinates": [
          2.33333,
          50.66667
        ]
      }
    },
    {
      "type": "Feature",
      "properties": {
        "name": "Akaba",
        "year": 1949,
        "class": "L6",
        "mass": 779
      },
      "geometry": {
        "type": "Point",
        "coordinates": [
          35.05,
          29.51667
        ]
      }
    },
    {
      "type": "Feature",
      "properties": {
        "name": "Akbarpur",
        "year": 1838,
        "class": "H4",
        "mass": 1800
      },
      "geometry": {
        "type": "Point",
        "coordinates": [
          77.95,
          29.71667
        ]
      }
    },
    {
      "type": "Feature",
      "properties": {
        "name": "Akwanga",
        "year": 1959,
        "class": "H",
        "mass": 3000
      },
      "geometry": {
        "type": "Point",
        "coordinates": [
          8.43333,
          8.91667
        ]
      }
    },
    {
      "type": "Feature",
      "properties": {
        "name": "Akyumak",
        "year": 1981,
        "class": "Iron, IVA",
        "mass": 50000
      },
      "geometry": {
        "type": "Point",
        "coordinates": [
          42.81667,
          39.91667
        ]
      }
    },
    {
      "type": "Feature",
      "properties": {
        "name": "Al Rais",
        "year": 1957,
        "class": "CR2-an",
        "mass": 160
      },
      "geometry": {
        "type": "Point",
        "coordinates": [
          39.51667,
          24.41667
        ]
      }
    },
    {
      "type": "Feature",
      "properties": {
        "name": "Al Zarnkh",
        "year": 2001,
        "class": "LL5",
        "mass": 700
      },
      "geometry": {
        "type": "Point",
        "coordinates": [
          28.96,
          13.66033
        ]
      }
    },
    {
      "type": "Feature",
      "properties": {
        "name": "Alais",
        "year": 1806,
        "class": "CI1",
        "mass": 6000
      },
      "geometry": {
        "type": "Point",
        "coordinates": [
          4.08333,
          44.11667
        ]
      }
    },
    {
      "type": "Feature",
      "properties": {
        "name": "Albareto",
        "year": 1766,
        "class": "L/LL4",
        "mass": 2000
      },
      "geometry": {
        "type": "Point",
        "coordinates": [
          11.01667,
          44.65
        ]
      }
    },
    {
      "type": "Feature",
      "properties": {
        "name": "Alberta",
        "year": 1949,
        "class": "L",
        "mass": 625
      },
      "geometry": {
        "type": "Point",
        "coordinates": [
          22.66667,
          2
        ]
      }
    },
    {
      "type": "Feature",
      "properties": {
        "name": "Alby sur Chéran",
        "year": 2002,
        "class": "Eucrite-mmict",
        "mass": 252
      },
      "geometry": {
        "type": "Point",
        "coordinates": [
          6.01533,
          45.82133
        ]
      }
    },
    {
      "type": "Feature",
      "properties": {
        "name": "Aldsworth",
        "year": 1835,
        "class": "LL5",
        "mass": 700
      },
      "geometry": {
        "type": "Point",
        "coordinates": [
          -1.78333,
          51.78333
        ]
      }
    },
    {
      "type": "Feature",
      "properties": {
        "name": "Aleppo",
        "year": 1873,
        "class": "L6",
        "mass": 3200
      },
      "geometry": {
        "type": "Point",
        "coordinates": [
          37.13333,
          36.23333
        ]
      }
    },
    {
      "type": "Feature",
      "properties": {
        "name": "Alessandria",
        "year": 1860,
        "class": "H5",
        "mass": 908
      },
      "geometry": {
        "type": "Point",
        "coordinates": [
          8.75,
          44.88333
        ]
      }
    },
    {
      "type": "Feature",
      "properties": {
        "name": "Alexandrovsky",
        "year": 1900,
        "class": "H4",
        "mass": 9251
      },
      "geometry": {
        "type": "Point",
        "coordinates": [
          31.81667,
          50.95
        ]
      }
    },
    {
      "type": "Feature",
      "properties": {
        "name": "Alfianello",
        "year": 1883,
        "class": "L6",
        "mass": 228000
      },
      "geometry": {
        "type": "Point",
        "coordinates": [
          10.15,
          45.26667
        ]
      }
    },
    {
      "type": "Feature",
      "properties": {
        "name": "Allegan",
        "year": 1899,
        "class": "H5",
        "mass": 32000
      },
      "geometry": {
        "type": "Point",
        "coordinates": [
          -85.88333,
          42.53333
        ]
      }
    },
    {
      "type": "Feature",
      "properties": {
        "name": "Allende",
        "year": 1969,
        "class": "CV3",
        "mass": 2000000
      },
      "geometry": {
        "type": "Point",
        "coordinates": [
          -105.31667,
          26.96667
        ]
      }
    },
    {
      "type": "Feature",
      "properties": {
        "name": "Almahata Sitta",
        "year": 2008,
        "class": "Ureilite-an",
        "mass": 3950
      },
      "geometry": {
        "type": "Point",
        "coordinates": [
          32.41275,
          20.74575
        ]
      }
    },
    {
      "type": "Feature",
      "properties": {
        "name": "Alta ameem",
        "year": 1977,
        "class": "LL5",
        "mass": 6000
      },
      "geometry": {
        "type": "Point",
        "coordinates": [
          44.21556,
          35.27333
        ]
      }
    },
    {
      "type": "Feature",
      "properties": {
        "name": "Ambapur Nagla",
        "year": 1895,
        "class": "H5",
        "mass": 6400
      },
      "geometry": {
        "type": "Point",
        "coordinates": [
          78.25,
          27.66667
        ]
      }
    },
    {
      "type": "Feature",
      "properties": {
        "name": "Andhara",
        "year": 1880,
        "class": "Stone-uncl",
        "mass": 2700
      },
      "geometry": {
        "type": "Point",
        "coordinates": [
          85.56667,
          26.58333
        ]
      }
    },
    {
      "type": "Feature",
      "properties": {
        "name": "Andover",
        "year": 1898,
        "class": "L6",
        "mass": 3200
      },
      "geometry": {
        "type": "Point",
        "coordinates": [
          -70.75,
          44.61667
        ]
      }
    },
    {
      "type": "Feature",
      "properties": {
        "name": "Andreevka",
        "year": 1969,
        "class": "L3",
        "mass": 600
      },
      "geometry": {
        "type": "Point",
        "coordinates": [
          37.5,
          48.7
        ]
      }
    },
    {
      "type": "Feature",
      "properties": {
        "name": "Andura",
        "year": 1939,
        "class": "H6",
        "mass": 17900
      },
      "geometry": {
        "type": "Point",
        "coordinates": [
          76.86667,
          20.88333
        ]
      }
    },
    {
      "type": "Feature",
      "properties": {
        "name": "Angers",
        "year": 1822,
        "class": "L6",
        "mass": ""
      },
      "geometry": {
        "type": "Point",
        "coordinates": [
          -0.55,
          47.46667
        ]
      }
    },
    {
      "type": "Feature",
      "properties": {
        "name": "Angra dos Reis stone",
        "year": 1869,
        "class": "Angrite",
        "mass": 1500
      },
      "geometry": {
        "type": "Point",
        "coordinates": [
          -44.31667,
          -22.96667
        ]
      }
    },
    {
      "type": "Feature",
      "properties": {
        "name": "Ankober",
        "year": 1942,
        "class": "H4",
        "mass": 6500
      },
      "geometry": {
        "type": "Point",
        "coordinates": [
          39.71667,
          9.53333
        ]
      }
    },
    {
      "type": "Feature",
      "properties": {
        "name": "Anlong",
        "year": 1971,
        "class": "H5",
        "mass": 2500
      },
      "geometry": {
        "type": "Point",
        "coordinates": [
          105.18333,
          25.15
        ]
      }
    },
    {
      "type": "Feature",
      "properties": {
        "name": "Aomori",
        "year": 1984,
        "class": "L6",
        "mass": 320
      },
      "geometry": {
        "type": "Point",
        "coordinates": [
          140.78556,
          40.81056
        ]
      }
    },
    {
      "type": "Feature",
      "properties": {
        "name": "Appley Bridge",
        "year": 1914,
        "class": "LL6",
        "mass": 15000
      },
      "geometry": {
        "type": "Point",
        "coordinates": [
          -2.71667,
          53.58333
        ]
      }
    },
    {
      "type": "Feature",
      "properties": {
        "name": "Apt",
        "year": 1803,
        "class": "L6",
        "mass": 3200
      },
      "geometry": {
        "type": "Point",
        "coordinates": [
          5.38333,
          43.86667
        ]
      }
    },
    {
      "type": "Feature",
      "properties": {
        "name": "Arbol Solo",
        "year": 1954,
        "class": "H5",
        "mass": 810
      },
      "geometry": {
        "type": "Point",
        "coordinates": [
          -66,
          -33
        ]
      }
    },
    {
      "type": "Feature",
      "properties": {
        "name": "Archie",
        "year": 1932,
        "class": "H6",
        "mass": 5070
      },
      "geometry": {
        "type": "Point",
        "coordinates": [
          -94.3,
          38.5
        ]
      }
    },
    {
      "type": "Feature",
      "properties": {
        "name": "Arroyo Aguiar",
        "year": 1950,
        "class": "H5",
        "mass": 7450
      },
      "geometry": {
        "type": "Point",
        "coordinates": [
          -60.66667,
          -31.41667
        ]
      }
    },
    {
      "type": "Feature",
      "properties": {
        "name": "Asco",
        "year": 1805,
        "class": "H6",
        "mass": 41
      },
      "geometry": {
        "type": "Point",
        "coordinates": [
          9.03333,
          42.45
        ]
      }
    },
    {
      "type": "Feature",
      "properties": {
        "name": "Ash Creek",
        "year": 2009,
        "class": "L6",
        "mass": 9500
      },
      "geometry": {
        "type": "Point",
        "coordinates": [
          -97.01,
          31.805
        ]
      }
    },
    {
      "type": "Feature",
      "properties": {
        "name": "Ashdon",
        "year": 1923,
        "class": "L6",
        "mass": 1300
      },
      "geometry": {
        "type": "Point",
        "coordinates": [
          0.3,
          52.05
        ]
      }
    },
    {
      "type": "Feature",
      "properties": {
        "name": "Assisi",
        "year": 1886,
        "class": "H5",
        "mass": 2000
      },
      "geometry": {
        "type": "Point",
        "coordinates": [
          12.55,
          43.03333
        ]
      }
    },
    {
      "type": "Feature",
      "properties": {
        "name": "Atarra",
        "year": 1920,
        "class": "L4",
        "mass": 1280
      },
      "geometry": {
        "type": "Point",
        "coordinates": [
          80.625,
          25.25417
        ]
      }
    },
    {
      "type": "Feature",
      "properties": {
        "name": "Atemajac",
        "year": 1896,
        "class": "L6",
        "mass": 94.2
      },
      "geometry": {
        "type": "Point",
        "coordinates": [
          -103.66667,
          20.06667
        ]
      }
    },
    {
      "type": "Feature",
      "properties": {
        "name": "Athens",
        "year": 1933,
        "class": "LL6",
        "mass": 265
      },
      "geometry": {
        "type": "Point",
        "coordinates": [
          -87,
          34.75
        ]
      }
    },
    {
      "type": "Feature",
      "properties": {
        "name": "Atoka",
        "year": 1945,
        "class": "L6",
        "mass": 1384.2
      },
      "geometry": {
        "type": "Point",
        "coordinates": [
          -96.15,
          34.31667
        ]
      }
    },
    {
      "type": "Feature",
      "properties": {
        "name": "Aubres",
        "year": 1836,
        "class": "Aubrite",
        "mass": 800
      },
      "geometry": {
        "type": "Point",
        "coordinates": [
          5.16667,
          44.38333
        ]
      }
    },
    {
      "type": "Feature",
      "properties": {
        "name": "Aumale",
        "year": 1865,
        "class": "L6",
        "mass": 50000
      },
      "geometry": {
        "type": "Point",
        "coordinates": [
          3.66667,
          36.16667
        ]
      }
    },
    {
      "type": "Feature",
      "properties": {
        "name": "Aumieres",
        "year": 1842,
        "class": "L6",
        "mass": 2000
      },
      "geometry": {
        "type": "Point",
        "coordinates": [
          3.23333,
          44.33333
        ]
      }
    },
    {
      "type": "Feature",
      "properties": {
        "name": "Ausson",
        "year": 1858,
        "class": "L5",
        "mass": 50000
      },
      "geometry": {
        "type": "Point",
        "coordinates": [
          0.58333,
          43.08333
        ]
      }
    },
    {
      "type": "Feature",
      "properties": {
        "name": "Avanhandava",
        "year": 1952,
        "class": "H4",
        "mass": 9330
      },
      "geometry": {
        "type": "Point",
        "coordinates": [
          -49.95083,
          -21.46028
        ]
      }
    },
    {
      "type": "Feature",
      "properties": {
        "name": "Avce",
        "year": 1908,
        "class": "Iron, IIAB",
        "mass": 1230
      },
      "geometry": {
        "type": "Point",
        "coordinates": [
          13.5,
          46
        ]
      }
    },
    {
      "type": "Feature",
      "properties": {
        "name": "Avilez",
        "year": 1855,
        "class": "H",
        "mass": 146
      },
      "geometry": {
        "type": "Point",
        "coordinates": [
          -103.5,
          25
        ]
      }
    },
    {
      "type": "Feature",
      "properties": {
        "name": "Awere",
        "year": 1968,
        "class": "L4",
        "mass": 134
      },
      "geometry": {
        "type": "Point",
        "coordinates": [
          32.83333,
          2.71667
        ]
      }
    },
    {
      "type": "Feature",
      "properties": {
        "name": "Aztec",
        "year": 1938,
        "class": "L6",
        "mass": 2830
      },
      "geometry": {
        "type": "Point",
        "coordinates": [
          -108,
          36.8
        ]
      }
    },
    {
      "type": "Feature",
      "properties": {
        "name": "Bachmut",
        "year": 1814,
        "class": "L6",
        "mass": 18000
      },
      "geometry": {
        "type": "Point",
        "coordinates": [
          38,
          48.6
        ]
      }
    },
    {
      "type": "Feature",
      "properties": {
        "name": "Bahjoi",
        "year": 1934,
        "class": "Iron, IAB-sLL",
        "mass": 10322
      },
      "geometry": {
        "type": "Point",
        "coordinates": [
          78.5,
          28.48333
        ]
      }
    },
    {
      "type": "Feature",
      "properties": {
        "name": "Bald Mountain",
        "year": 1929,
        "class": "L4",
        "mass": 3700
      },
      "geometry": {
        "type": "Point",
        "coordinates": [
          -82.48333,
          35.96667
        ]
      }
    },
    {
      "type": "Feature",
      "properties": {
        "name": "Baldwyn",
        "year": 1922,
        "class": "L6",
        "mass": 345
      },
      "geometry": {
        "type": "Point",
        "coordinates": [
          -88.66667,
          34.5
        ]
      }
    },
    {
      "type": "Feature",
      "properties": {
        "name": "Bali",
        "year": 1907,
        "class": "CV3",
        "mass": 1000
      },
      "geometry": {
        "type": "Point",
        "coordinates": [
          16.38333,
          5.38333
        ]
      }
    },
    {
      "type": "Feature",
      "properties": {
        "name": "Ban Rong Du",
        "year": 1993,
        "class": "Iron, ungrouped",
        "mass": 16700
      },
      "geometry": {
        "type": "Point",
        "coordinates": [
          101.18333,
          16.66667
        ]
      }
    },
    {
      "type": "Feature",
      "properties": {
        "name": "Bandong",
        "year": 1871,
        "class": "LL6",
        "mass": 11500
      },
      "geometry": {
        "type": "Point",
        "coordinates": [
          107.6,
          -6.91667
        ]
      }
    },
    {
      "type": "Feature",
      "properties": {
        "name": "Bansur",
        "year": 1892,
        "class": "L6",
        "mass": 15000
      },
      "geometry": {
        "type": "Point",
        "coordinates": [
          76.33333,
          27.7
        ]
      }
    },
    {
      "type": "Feature",
      "properties": {
        "name": "Banswal",
        "year": 1913,
        "class": "L5",
        "mass": 14
      },
      "geometry": {
        "type": "Point",
        "coordinates": [
          78.2,
          30.4
        ]
      }
    },
    {
      "type": "Feature",
      "properties": {
        "name": "Banten",
        "year": 1933,
        "class": "CM2",
        "mass": 629
      },
      "geometry": {
        "type": "Point",
        "coordinates": [
          106,
          -6.33333
        ]
      }
    },
    {
      "type": "Feature",
      "properties": {
        "name": "Barbotan",
        "year": 1790,
        "class": "H5",
        "mass": 6400
      },
      "geometry": {
        "type": "Point",
        "coordinates": [
          -0.05,
          43.95
        ]
      }
    },
    {
      "type": "Feature",
      "properties": {
        "name": "Barcelona stone",
        "year": 1704,
        "class": "OC",
        "mass": ""
      },
      "geometry": {
        "type": "Point",
        "coordinates": [
          2.16667,
          41.36667
        ]
      }
    },
    {
      "type": "Feature",
      "properties": {
        "name": "Barea",
        "year": 1842,
        "class": "Mesosiderite-A1",
        "mass": 3200
      },
      "geometry": {
        "type": "Point",
        "coordinates": [
          -2.5,
          42.38333
        ]
      }
    },
    {
      "type": "Feature",
      "properties": {
        "name": "Barnaul",
        "year": 1904,
        "class": "H5",
        "mass": 23.2
      },
      "geometry": {
        "type": "Point",
        "coordinates": [
          84.08333,
          52.73333
        ]
      }
    },
    {
      "type": "Feature",
      "properties": {
        "name": "Barntrup",
        "year": 1886,
        "class": "LL4",
        "mass": 17
      },
      "geometry": {
        "type": "Point",
        "coordinates": [
          9.1,
          52
        ]
      }
    },
    {
      "type": "Feature",
      "properties": {
        "name": "Baroti",
        "year": 1910,
        "class": "L6",
        "mass": 4500
      },
      "geometry": {
        "type": "Point",
        "coordinates": [
          76.8,
          31.61667
        ]
      }
    },
    {
      "type": "Feature",
      "properties": {
        "name": "Barwell",
        "year": 1965,
        "class": "L5",
        "mass": 44000
      },
      "geometry": {
        "type": "Point",
        "coordinates": [
          -1.33972,
          52.56528
        ]
      }
    },
    {
      "type": "Feature",
      "properties": {
        "name": "Bassikounou",
        "year": 2006,
        "class": "H5",
        "mass": 29560
      },
      "geometry": {
        "type": "Point",
        "coordinates": [
          -5.9,
          15.78333
        ]
      }
    },
    {
      "type": "Feature",
      "properties": {
        "name": "Baszkówka",
        "year": 1994,
        "class": "L5",
        "mass": 15500
      },
      "geometry": {
        "type": "Point",
        "coordinates": [
          20.93583,
          52.03333
        ]
      }
    },
    {
      "type": "Feature",
      "properties": {
        "name": "Bath",
        "year": 1892,
        "class": "H4",
        "mass": 21000
      },
      "geometry": {
        "type": "Point",
        "coordinates": [
          -98.31667,
          45.41667
        ]
      }
    },
    {
      "type": "Feature",
      "properties": {
        "name": "Bath Furnace",
        "year": 1902,
        "class": "L6",
        "mass": 86000
      },
      "geometry": {
        "type": "Point",
        "coordinates": [
          -83.75,
          38.25
        ]
      }
    },
    {
      "type": "Feature",
      "properties": {
        "name": "Battle Mountain",
        "year": 2012,
        "class": "L6",
        "mass": 2900
      },
      "geometry": {
        "type": "Point",
        "coordinates": [
          -117.18913,
          40.66813
        ]
      }
    },
    {
      "type": "Feature",
      "properties": {
        "name": "Bawku",
        "year": 1989,
        "class": "LL5",
        "mass": 1557
      },
      "geometry": {
        "type": "Point",
        "coordinates": [
          -0.18333,
          11.08333
        ]
      }
    },
    {
      "type": "Feature",
      "properties": {
        "name": "Baxter",
        "year": 1916,
        "class": "L6",
        "mass": 611
      },
      "geometry": {
        "type": "Point",
        "coordinates": [
          -93.5,
          36.75
        ]
      }
    },
    {
      "type": "Feature",
      "properties": {
        "name": "Beardsley",
        "year": 1929,
        "class": "H5",
        "mass": 16000
      },
      "geometry": {
        "type": "Point",
        "coordinates": [
          -101.2,
          39.8
        ]
      }
    },
    {
      "type": "Feature",
      "properties": {
        "name": "Beaver Creek",
        "year": 1893,
        "class": "H5",
        "mass": 14000
      },
      "geometry": {
        "type": "Point",
        "coordinates": [
          -117.33333,
          51.16667
        ]
      }
    },
    {
      "type": "Feature",
      "properties": {
        "name": "Beddgelert",
        "year": 1949,
        "class": "H5",
        "mass": 794
      },
      "geometry": {
        "type": "Point",
        "coordinates": [
          -4.1,
          53.01667
        ]
      }
    },
    {
      "type": "Feature",
      "properties": {
        "name": "Bells",
        "year": 1961,
        "class": "C2-ung",
        "mass": 375
      },
      "geometry": {
        "type": "Point",
        "coordinates": [
          -96.46667,
          33.6
        ]
      }
    },
    {
      "type": "Feature",
      "properties": {
        "name": "Belville",
        "year": 1937,
        "class": "OC",
        "mass": ""
      },
      "geometry": {
        "type": "Point",
        "coordinates": [
          -64.86667,
          -32.33333
        ]
      }
    },
    {
      "type": "Feature",
      "properties": {
        "name": "Benares a",
        "year": 1798,
        "class": "LL4",
        "mass": 3700
      },
      "geometry": {
        "type": "Point",
        "coordinates": [
          82.91667,
          25.36667
        ]
      }
    },
    {
      "type": "Feature",
      "properties": {
        "name": "Benguerir",
        "year": 2004,
        "class": "LL6",
        "mass": 25000
      },
      "geometry": {
        "type": "Point",
        "coordinates": [
          -8.15,
          32.25
        ]
      }
    },
    {
      "type": "Feature",
      "properties": {
        "name": "Beni M hira",
        "year": 2001,
        "class": "L6",
        "mass": 19000
      },
      "geometry": {
        "type": "Point",
        "coordinates": [
          10.8,
          32.86667
        ]
      }
    },
    {
      "type": "Feature",
      "properties": {
        "name": "Benld",
        "year": 1938,
        "class": "H6",
        "mass": 1770.5
      },
      "geometry": {
        "type": "Point",
        "coordinates": [
          -89.15,
          39.08333
        ]
      }
    },
    {
      "type": "Feature",
      "properties": {
        "name": "Benoni",
        "year": 1943,
        "class": "H6",
        "mass": 3880
      },
      "geometry": {
        "type": "Point",
        "coordinates": [
          28.41667,
          -26.16667
        ]
      }
    },
    {
      "type": "Feature",
      "properties": {
        "name": "Bensour",
        "year": 2002,
        "class": "LL6",
        "mass": 45000
      },
      "geometry": {
        "type": "Point",
        "coordinates": [
          -7,
          30
        ]
      }
    },
    {
      "type": "Feature",
      "properties": {
        "name": "Benton",
        "year": 1949,
        "class": "LL6",
        "mass": 2840
      },
      "geometry": {
        "type": "Point",
        "coordinates": [
          -67.55,
          45.95
        ]
      }
    },
    {
      "type": "Feature",
      "properties": {
        "name": "Berduc",
        "year": 2008,
        "class": "L6",
        "mass": 270
      },
      "geometry": {
        "type": "Point",
        "coordinates": [
          -58.32833,
          -31.91
        ]
      }
    },
    {
      "type": "Feature",
      "properties": {
        "name": "Béréba",
        "year": 1924,
        "class": "Eucrite-mmict",
        "mass": 18000
      },
      "geometry": {
        "type": "Point",
        "coordinates": [
          -3.65,
          11.65
        ]
      }
    },
    {
      "type": "Feature",
      "properties": {
        "name": "Berlanguillas",
        "year": 1811,
        "class": "L6",
        "mass": 1440
      },
      "geometry": {
        "type": "Point",
        "coordinates": [
          -3.8,
          41.68333
        ]
      }
    },
    {
      "type": "Feature",
      "properties": {
        "name": "Berthoud",
        "year": 2004,
        "class": "Eucrite-mmict",
        "mass": 960
      },
      "geometry": {
        "type": "Point",
        "coordinates": [
          -105.02325,
          40.30583
        ]
      }
    },
    {
      "type": "Feature",
      "properties": {
        "name": "Bethlehem",
        "year": 1859,
        "class": "H",
        "mass": 13.9
      },
      "geometry": {
        "type": "Point",
        "coordinates": [
          -73.83333,
          42.53333
        ]
      }
    },
    {
      "type": "Feature",
      "properties": {
        "name": "Beuste",
        "year": 1859,
        "class": "L5",
        "mass": 2000
      },
      "geometry": {
        "type": "Point",
        "coordinates": [
          -0.23333,
          43.21667
        ]
      }
    },
    {
      "type": "Feature",
      "properties": {
        "name": "Beyrout",
        "year": 1921,
        "class": "LL3.8",
        "mass": 1100
      },
      "geometry": {
        "type": "Point",
        "coordinates": [
          35.5,
          33.88333
        ]
      }
    },
    {
      "type": "Feature",
      "properties": {
        "name": "Bhagur",
        "year": 1877,
        "class": "L6",
        "mass": 18
      },
      "geometry": {
        "type": "Point",
        "coordinates": [
          74.83333,
          20.88333
        ]
      }
    },
    {
      "type": "Feature",
      "properties": {
        "name": "Bhawad",
        "year": 2002,
        "class": "LL6",
        "mass": 678
      },
      "geometry": {
        "type": "Point",
        "coordinates": [
          73.11528,
          26.50833
        ]
      }
    },
    {
      "type": "Feature",
      "properties": {
        "name": "Bherai",
        "year": 1893,
        "class": "L6",
        "mass": 100
      },
      "geometry": {
        "type": "Point",
        "coordinates": [
          71.46667,
          20.83333
        ]
      }
    },
    {
      "type": "Feature",
      "properties": {
        "name": "Bhola",
        "year": 1940,
        "class": "LL3-6",
        "mass": 1047
      },
      "geometry": {
        "type": "Point",
        "coordinates": [
          90.65,
          22.68333
        ]
      }
    },
    {
      "type": "Feature",
      "properties": {
        "name": "Bholghati",
        "year": 1905,
        "class": "Howardite",
        "mass": 2500
      },
      "geometry": {
        "type": "Point",
        "coordinates": [
          86.9,
          22.08333
        ]
      }
    },
    {
      "type": "Feature",
      "properties": {
        "name": "Bialystok",
        "year": 1827,
        "class": "Eucrite-pmict",
        "mass": 4000
      },
      "geometry": {
        "type": "Point",
        "coordinates": [
          23.2,
          53.1
        ]
      }
    },
    {
      "type": "Feature",
      "properties": {
        "name": "Bielokrynitschie",
        "year": 1887,
        "class": "H4",
        "mass": 1900
      },
      "geometry": {
        "type": "Point",
        "coordinates": [
          27.16667,
          50.13333
        ]
      }
    },
    {
      "type": "Feature",
      "properties": {
        "name": "Bilanga",
        "year": 1999,
        "class": "Diogenite",
        "mass": 25000
      },
      "geometry": {
        "type": "Point",
        "coordinates": [
          -0.08333,
          12.45
        ]
      }
    },
    {
      "type": "Feature",
      "properties": {
        "name": "Binningup",
        "year": 1984,
        "class": "H5",
        "mass": 488.1
      },
      "geometry": {
        "type": "Point",
        "coordinates": [
          115.67639,
          -33.15639
        ]
      }
    },
    {
      "type": "Feature",
      "properties": {
        "name": "Birni N konni",
        "year": 1923,
        "class": "H4",
        "mass": 560
      },
      "geometry": {
        "type": "Point",
        "coordinates": [
          5.3,
          13.76667
        ]
      }
    },
    {
      "type": "Feature",
      "properties": {
        "name": "Bishopville",
        "year": 1843,
        "class": "Aubrite",
        "mass": 6000
      },
      "geometry": {
        "type": "Point",
        "coordinates": [
          -80.28333,
          34.16667
        ]
      }
    },
    {
      "type": "Feature",
      "properties": {
        "name": "Bishunpur",
        "year": 1895,
        "class": "LL3.15",
        "mass": 1039
      },
      "geometry": {
        "type": "Point",
        "coordinates": [
          82.6,
          25.38333
        ]
      }
    },
    {
      "type": "Feature",
      "properties": {
        "name": "Bjelaja Zerkov",
        "year": 1796,
        "class": "H6",
        "mass": 1850
      },
      "geometry": {
        "type": "Point",
        "coordinates": [
          30.16667,
          49.78333
        ]
      }
    },
    {
      "type": "Feature",
      "properties": {
        "name": "Bjurböle",
        "year": 1899,
        "class": "L/LL4",
        "mass": 330000
      },
      "geometry": {
        "type": "Point",
        "coordinates": [
          25.8,
          60.4
        ]
      }
    },
    {
      "type": "Feature",
      "properties": {
        "name": "Black Moshannan Park",
        "year": 1941,
        "class": "L5",
        "mass": 705
      },
      "geometry": {
        "type": "Point",
        "coordinates": [
          -78.08333,
          40.91667
        ]
      }
    },
    {
      "type": "Feature",
      "properties": {
        "name": "Blackwell",
        "year": 1906,
        "class": "L5",
        "mass": 2381
      },
      "geometry": {
        "type": "Point",
        "coordinates": [
          -97.33333,
          36.83333
        ]
      }
    },
    {
      "type": "Feature",
      "properties": {
        "name": "Blanket",
        "year": 1909,
        "class": "L6",
        "mass": 5100
      },
      "geometry": {
        "type": "Point",
        "coordinates": [
          -98.83333,
          31.83333
        ]
      }
    },
    {
      "type": "Feature",
      "properties": {
        "name": "Blansko",
        "year": 1833,
        "class": "H6",
        "mass": 470
      },
      "geometry": {
        "type": "Point",
        "coordinates": [
          16.63333,
          49.36667
        ]
      }
    },
    {
      "type": "Feature",
      "properties": {
        "name": "Bloomington",
        "year": 1938,
        "class": "LL6",
        "mass": 67.8
      },
      "geometry": {
        "type": "Point",
        "coordinates": [
          -89.00417,
          40.48
        ]
      }
    },
    {
      "type": "Feature",
      "properties": {
        "name": "Bo Xian",
        "year": 1977,
        "class": "LL3.9",
        "mass": 7500
      },
      "geometry": {
        "type": "Point",
        "coordinates": [
          115.83333,
          33.83333
        ]
      }
    },
    {
      "type": "Feature",
      "properties": {
        "name": "Bocas",
        "year": 1804,
        "class": "L6",
        "mass": 56
      },
      "geometry": {
        "type": "Point",
        "coordinates": [
          -102,
          23
        ]
      }
    },
    {
      "type": "Feature",
      "properties": {
        "name": "Bogou",
        "year": 1962,
        "class": "Iron, IAB-MG",
        "mass": 8800
      },
      "geometry": {
        "type": "Point",
        "coordinates": [
          0.7,
          12.5
        ]
      }
    },
    {
      "type": "Feature",
      "properties": {
        "name": "Boguslavka",
        "year": 1916,
        "class": "Iron, IIAB",
        "mass": 256000
      },
      "geometry": {
        "type": "Point",
        "coordinates": [
          131.63333,
          44.55
        ]
      }
    },
    {
      "type": "Feature",
      "properties": {
        "name": "Borgo San Donino",
        "year": 1808,
        "class": "LL6",
        "mass": 1676
      },
      "geometry": {
        "type": "Point",
        "coordinates": [
          10.05,
          44.86667
        ]
      }
    },
    {
      "type": "Feature",
      "properties": {
        "name": "Bori",
        "year": 1894,
        "class": "L6",
        "mass": 8600
      },
      "geometry": {
        "type": "Point",
        "coordinates": [
          78.03333,
          21.95
        ]
      }
    },
    {
      "type": "Feature",
      "properties": {
        "name": "Boriskino",
        "year": 1930,
        "class": "CM2",
        "mass": 1342
      },
      "geometry": {
        "type": "Point",
        "coordinates": [
          52.48333,
          54.23333
        ]
      }
    },
    {
      "type": "Feature",
      "properties": {
        "name": "Borkut",
        "year": 1852,
        "class": "L5",
        "mass": 7000
      },
      "geometry": {
        "type": "Point",
        "coordinates": [
          24.28333,
          48.15
        ]
      }
    },
    {
      "type": "Feature",
      "properties": {
        "name": "Borodino",
        "year": 1812,
        "class": "H5",
        "mass": 500
      },
      "geometry": {
        "type": "Point",
        "coordinates": [
          35.86667,
          55.46667
        ]
      }
    },
    {
      "type": "Feature",
      "properties": {
        "name": "Botschetschki",
        "year": 1823,
        "class": "L4",
        "mass": 614
      },
      "geometry": {
        "type": "Point",
        "coordinates": [
          33.88333,
          51.33333
        ]
      }
    },
    {
      "type": "Feature",
      "properties": {
        "name": "Boumdeid 2003",
        "year": 2003,
        "class": "L6",
        "mass": 190
      },
      "geometry": {
        "type": "Point",
        "coordinates": [
          -11.3715,
          17.71067
        ]
      }
    },
    {
      "type": "Feature",
      "properties": {
        "name": "Boumdeid 2011",
        "year": 2011,
        "class": "L6",
        "mass": 3599
      },
      "geometry": {
        "type": "Point",
        "coordinates": [
          -11.34133,
          17.17493
        ]
      }
    },
    {
      "type": "Feature",
      "properties": {
        "name": "Bovedy",
        "year": 1969,
        "class": "L3",
        "mass": 5460
      },
      "geometry": {
        "type": "Point",
        "coordinates": [
          -6.33333,
          54.56667
        ]
      }
    },
    {
      "type": "Feature",
      "properties": {
        "name": "Bradford Woods",
        "year": 1886,
        "class": "L",
        "mass": 762
      },
      "geometry": {
        "type": "Point",
        "coordinates": [
          -80.08333,
          40.5
        ]
      }
    },
    {
      "type": "Feature",
      "properties": {
        "name": "Braunau",
        "year": 1847,
        "class": "Iron, IIAB",
        "mass": 39000
      },
      "geometry": {
        "type": "Point",
        "coordinates": [
          16.3,
          50.6
        ]
      }
    },
    {
      "type": "Feature",
      "properties": {
        "name": "Breitscheid",
        "year": 1956,
        "class": "H5",
        "mass": 1500
      },
      "geometry": {
        "type": "Point",
        "coordinates": [
          8.18361,
          50.66694
        ]
      }
    },
    {
      "type": "Feature",
      "properties": {
        "name": "Bremervörde",
        "year": 1855,
        "class": "H/L3.9",
        "mass": 7250
      },
      "geometry": {
        "type": "Point",
        "coordinates": [
          9.1,
          53.4
        ]
      }
    },
    {
      "type": "Feature",
      "properties": {
        "name": "Brient",
        "year": 1933,
        "class": "Eucrite-pmict",
        "mass": 219
      },
      "geometry": {
        "type": "Point",
        "coordinates": [
          59.31667,
          52.13333
        ]
      }
    },
    {
      "type": "Feature",
      "properties": {
        "name": "Bruderheim",
        "year": 1960,
        "class": "L6",
        "mass": 303000
      },
      "geometry": {
        "type": "Point",
        "coordinates": [
          -112.88333,
          53.9
        ]
      }
    },
    {
      "type": "Feature",
      "properties": {
        "name": "Bukhara",
        "year": 2001,
        "class": "CV3",
        "mass": 5300
      },
      "geometry": {
        "type": "Point",
        "coordinates": [
          64.60035,
          39.77978
        ]
      }
    },
    {
      "type": "Feature",
      "properties": {
        "name": "Bulls Run",
        "year": 1964,
        "class": "Iron?",
        "mass": 2250
      },
      "geometry": {
        "type": "Point",
        "coordinates": [
          "",
          ""
        ]
      }
    },
    {
      "type": "Feature",
      "properties": {
        "name": "Bunburra Rockhole",
        "year": 2007,
        "class": "Eucrite",
        "mass": 324
      },
      "geometry": {
        "type": "Point",
        "coordinates": [
          129.19,
          -31.35
        ]
      }
    },
    {
      "type": "Feature",
      "properties": {
        "name": "Bununu",
        "year": 1942,
        "class": "Howardite",
        "mass": 357
      },
      "geometry": {
        "type": "Point",
        "coordinates": [
          9.58333,
          10.01667
        ]
      }
    },
    {
      "type": "Feature",
      "properties": {
        "name": "Bur-Gheluai",
        "year": 1919,
        "class": "H5",
        "mass": 120000
      },
      "geometry": {
        "type": "Point",
        "coordinates": [
          48,
          5
        ]
      }
    },
    {
      "type": "Feature",
      "properties": {
        "name": "Burnwell",
        "year": 1990,
        "class": "H4-an",
        "mass": 1504
      },
      "geometry": {
        "type": "Point",
        "coordinates": [
          -82.23722,
          37.62194
        ]
      }
    },
    {
      "type": "Feature",
      "properties": {
        "name": "Bursa",
        "year": 1946,
        "class": "L6",
        "mass": 25000
      },
      "geometry": {
        "type": "Point",
        "coordinates": [
          29.23333,
          40.2
        ]
      }
    },
    {
      "type": "Feature",
      "properties": {
        "name": "Buschhof",
        "year": 1863,
        "class": "L6",
        "mass": 5000
      },
      "geometry": {
        "type": "Point",
        "coordinates": [
          25.78333,
          46.45
        ]
      }
    },
    {
      "type": "Feature",
      "properties": {
        "name": "Bustee",
        "year": 1852,
        "class": "Aubrite",
        "mass": 1500
      },
      "geometry": {
        "type": "Point",
        "coordinates": [
          82.83333,
          26.78333
        ]
      }
    },
    {
      "type": "Feature",
      "properties": {
        "name": "Butsura",
        "year": 1861,
        "class": "H6",
        "mass": 29000
      },
      "geometry": {
        "type": "Point",
        "coordinates": [
          84.08333,
          27.08333
        ]
      }
    },
    {
      "type": "Feature",
      "properties": {
        "name": "Buzzard Coulee",
        "year": 2008,
        "class": "H4",
        "mass": 41000
      },
      "geometry": {
        "type": "Point",
        "coordinates": [
          -109.84817,
          52.996
        ]
      }
    },
    {
      "type": "Feature",
      "properties": {
        "name": "Cabezo de Mayo",
        "year": 1870,
        "class": "L/LL6",
        "mass": 25000
      },
      "geometry": {
        "type": "Point",
        "coordinates": [
          -1.16667,
          37.98333
        ]
      }
    },
    {
      "type": "Feature",
      "properties": {
        "name": "Cabin Creek",
        "year": 1886,
        "class": "Iron, IIIAB",
        "mass": 48500
      },
      "geometry": {
        "type": "Point",
        "coordinates": [
          -93.5,
          35.5
        ]
      }
    },
    {
      "type": "Feature",
      "properties": {
        "name": "Cacak",
        "year": 1919,
        "class": "OC",
        "mass": 212
      },
      "geometry": {
        "type": "Point",
        "coordinates": [
          20.33333,
          43.83889
        ]
      }
    },
    {
      "type": "Feature",
      "properties": {
        "name": "Cali",
        "year": 2007,
        "class": "H/L4",
        "mass": 478
      },
      "geometry": {
        "type": "Point",
        "coordinates": [
          -76.51,
          3.405
        ]
      }
    },
    {
      "type": "Feature",
      "properties": {
        "name": "Calivo",
        "year": 1916,
        "class": "Stone-uncl",
        "mass": 2400
      },
      "geometry": {
        "type": "Point",
        "coordinates": [
          122.33333,
          11.75
        ]
      }
    },
    {
      "type": "Feature",
      "properties": {
        "name": "Campos Sales",
        "year": 1991,
        "class": "L5",
        "mass": 23680
      },
      "geometry": {
        "type": "Point",
        "coordinates": [
          -40.16667,
          -7.03333
        ]
      }
    },
    {
      "type": "Feature",
      "properties": {
        "name": "Çanakkale",
        "year": 1964,
        "class": "L6",
        "mass": 4000
      },
      "geometry": {
        "type": "Point",
        "coordinates": [
          26.6,
          39.8
        ]
      }
    },
    {
      "type": "Feature",
      "properties": {
        "name": "Cañellas",
        "year": 1861,
        "class": "H4",
        "mass": 945
      },
      "geometry": {
        "type": "Point",
        "coordinates": [
          1.66667,
          41.25
        ]
      }
    },
    {
      "type": "Feature",
      "properties": {
        "name": "Cangas de Onis",
        "year": 1866,
        "class": "H5",
        "mass": 34000
      },
      "geometry": {
        "type": "Point",
        "coordinates": [
          -5.15,
          43.38333
        ]
      }
    },
    {
      "type": "Feature",
      "properties": {
        "name": "Canon City",
        "year": 1973,
        "class": "H6",
        "mass": 1400
      },
      "geometry": {
        "type": "Point",
        "coordinates": [
          -105.24139,
          38.47028
        ]
      }
    },
    {
      "type": "Feature",
      "properties": {
        "name": "Cape Girardeau",
        "year": 1846,
        "class": "H6",
        "mass": 2300
      },
      "geometry": {
        "type": "Point",
        "coordinates": [
          -89.58333,
          37.26667
        ]
      }
    },
    {
      "type": "Feature",
      "properties": {
        "name": "Capilla del Monte",
        "year": 1934,
        "class": "H6",
        "mass": 750
      },
      "geometry": {
        "type": "Point",
        "coordinates": [
          -64.55,
          -30.88333
        ]
      }
    },
    {
      "type": "Feature",
      "properties": {
        "name": "Carancas",
        "year": 2007,
        "class": "H4-5",
        "mass": 342
      },
      "geometry": {
        "type": "Point",
        "coordinates": [
          -69.04389,
          -16.66444
        ]
      }
    },
    {
      "type": "Feature",
      "properties": {
        "name": "Caratash",
        "year": 1902,
        "class": "LL6",
        "mass": 8
      },
      "geometry": {
        "type": "Point",
        "coordinates": [
          27,
          38.5
        ]
      }
    },
    {
      "type": "Feature",
      "properties": {
        "name": "Castalia",
        "year": 1874,
        "class": "H5",
        "mass": 7300
      },
      "geometry": {
        "type": "Point",
        "coordinates": [
          -78.06667,
          36.08333
        ]
      }
    },
    {
      "type": "Feature",
      "properties": {
        "name": "Castel Berardenga",
        "year": 1791,
        "class": "Stone-uncl",
        "mass": ""
      },
      "geometry": {
        "type": "Point",
        "coordinates": [
          11.5,
          43.35
        ]
      }
    },
    {
      "type": "Feature",
      "properties": {
        "name": "Castine",
        "year": 1848,
        "class": "L6",
        "mass": 94
      },
      "geometry": {
        "type": "Point",
        "coordinates": [
          -68.75,
          44.38333
        ]
      }
    },
    {
      "type": "Feature",
      "properties": {
        "name": "Castrovillari",
        "year": 1583,
        "class": "Stone-uncl",
        "mass": 15000
      },
      "geometry": {
        "type": "Point",
        "coordinates": [
          16.2,
          39.8
        ]
      }
    },
    {
      "type": "Feature",
      "properties": {
        "name": "Caswell County",
        "year": 1810,
        "class": "OC",
        "mass": 1360
      },
      "geometry": {
        "type": "Point",
        "coordinates": [
          -79.25,
          36.5
        ]
      }
    },
    {
      "type": "Feature",
      "properties": {
        "name": "Ceniceros",
        "year": 1988,
        "class": "L3.7",
        "mass": 1025
      },
      "geometry": {
        "type": "Point",
        "coordinates": [
          -105.23333,
          26.46667
        ]
      }
    },
    {
      "type": "Feature",
      "properties": {
        "name": "Centerville",
        "year": 1956,
        "class": "H5",
        "mass": 45.6
      },
      "geometry": {
        "type": "Point",
        "coordinates": [
          -96.91667,
          43.2
        ]
      }
    },
    {
      "type": "Feature",
      "properties": {
        "name": "Cereseto",
        "year": 1840,
        "class": "H5",
        "mass": 6460
      },
      "geometry": {
        "type": "Point",
        "coordinates": [
          8.3,
          45.08333
        ]
      }
    },
    {
      "type": "Feature",
      "properties": {
        "name": "Chadong",
        "year": 1998,
        "class": "L6",
        "mass": 3700
      },
      "geometry": {
        "type": "Point",
        "coordinates": [
          109.31667,
          28.53333
        ]
      }
    },
    {
      "type": "Feature",
      "properties": {
        "name": "Chail",
        "year": 1814,
        "class": "H6",
        "mass": 0.5
      },
      "geometry": {
        "type": "Point",
        "coordinates": [
          81.66667,
          25.36667
        ]
      }
    },
    {
      "type": "Feature",
      "properties": {
        "name": "Chainpur",
        "year": 1907,
        "class": "LL3.4",
        "mass": 8200
      },
      "geometry": {
        "type": "Point",
        "coordinates": [
          83.48333,
          25.85
        ]
      }
    },
    {
      "type": "Feature",
      "properties": {
        "name": "Chajari",
        "year": 1933,
        "class": "L5",
        "mass": 18300
      },
      "geometry": {
        "type": "Point",
        "coordinates": [
          -58.05,
          -30.78333
        ]
      }
    },
    {
      "type": "Feature",
      "properties": {
        "name": "Chandakapur",
        "year": 1838,
        "class": "L5",
        "mass": 8800
      },
      "geometry": {
        "type": "Point",
        "coordinates": [
          76.01667,
          20.26667
        ]
      }
    },
    {
      "type": "Feature",
      "properties": {
        "name": "Chandpur",
        "year": 1885,
        "class": "L6",
        "mass": 1100
      },
      "geometry": {
        "type": "Point",
        "coordinates": [
          79.05,
          27.28333
        ]
      }
    },
    {
      "type": "Feature",
      "properties": {
        "name": "Changde",
        "year": 1977,
        "class": "H5",
        "mass": 1810
      },
      "geometry": {
        "type": "Point",
        "coordinates": [
          111.75,
          29.08333
        ]
      }
    },
    {
      "type": "Feature",
      "properties": {
        "name": "Chantonnay",
        "year": 1812,
        "class": "L6",
        "mass": 31500
      },
      "geometry": {
        "type": "Point",
        "coordinates": [
          1.05,
          46.68333
        ]
      }
    },
    {
      "type": "Feature",
      "properties": {
        "name": "Charlotte",
        "year": 1835,
        "class": "Iron, IVA",
        "mass": 4300
      },
      "geometry": {
        "type": "Point",
        "coordinates": [
          -87.33333,
          36.16667
        ]
      }
    },
    {
      "type": "Feature",
      "properties": {
        "name": "Charsonville",
        "year": 1810,
        "class": "H6",
        "mass": 27000
      },
      "geometry": {
        "type": "Point",
        "coordinates": [
          1.56667,
          47.93333
        ]
      }
    },
    {
      "type": "Feature",
      "properties": {
        "name": "Charwallas",
        "year": 1834,
        "class": "H6",
        "mass": 12000
      },
      "geometry": {
        "type": "Point",
        "coordinates": [
          75.5,
          29.48333
        ]
      }
    },
    {
      "type": "Feature",
      "properties": {
        "name": "Chassigny",
        "year": 1815,
        "class": "Martian chassignite",
        "mass": 4000
      },
      "geometry": {
        "type": "Point",
        "coordinates": [
          5.36667,
          47.71667
        ]
      }
    },
    {
      "type": "Feature",
      "properties": {
        "name": "Château-Renard",
        "year": 1841,
        "class": "L6",
        "mass": 30000
      },
      "geometry": {
        "type": "Point",
        "coordinates": [
          2.91667,
          47.93333
        ]
      }
    },
    {
      "type": "Feature",
      "properties": {
        "name": "Chaves",
        "year": 1925,
        "class": "Howardite",
        "mass": 2945
      },
      "geometry": {
        "type": "Point",
        "coordinates": [
          -7.46667,
          41.93333
        ]
      }
    },
    {
      "type": "Feature",
      "properties": {
        "name": "Chela",
        "year": 1988,
        "class": "H4",
        "mass": 2936
      },
      "geometry": {
        "type": "Point",
        "coordinates": [
          32.5,
          -3.66667
        ]
      }
    },
    {
      "type": "Feature",
      "properties": {
        "name": "Chelyabinsk",
        "year": 2013,
        "class": "LL5",
        "mass": 100000
      },
      "geometry": {
        "type": "Point",
        "coordinates": [
          61.11667,
          54.81667
        ]
      }
    },
    {
      "type": "Feature",
      "properties": {
        "name": "Chergach",
        "year": 2007,
        "class": "H5",
        "mass": 100000
      },
      "geometry": {
        "type": "Point",
        "coordinates": [
          -5.01472,
          23.69639
        ]
      }
    },
    {
      "type": "Feature",
      "properties": {
        "name": "Chernyi Bor",
        "year": 1964,
        "class": "H4",
        "mass": 6000
      },
      "geometry": {
        "type": "Point",
        "coordinates": [
          30.1,
          53.7
        ]
      }
    },
    {
      "type": "Feature",
      "properties": {
        "name": "Cherokee Springs",
        "year": 1933,
        "class": "LL6",
        "mass": 8400
      },
      "geometry": {
        "type": "Point",
        "coordinates": [
          -81.88333,
          35.03333
        ]
      }
    },
    {
      "type": "Feature",
      "properties": {
        "name": "Chervettaz",
        "year": 1901,
        "class": "L5",
        "mass": 705
      },
      "geometry": {
        "type": "Point",
        "coordinates": [
          6.81667,
          46.55
        ]
      }
    },
    {
      "type": "Feature",
      "properties": {
        "name": "Chervony Kut",
        "year": 1939,
        "class": "Eucrite-mmict",
        "mass": 1700
      },
      "geometry": {
        "type": "Point",
        "coordinates": [
          34,
          50.83333
        ]
      }
    },
    {
      "type": "Feature",
      "properties": {
        "name": "Chetrinahatti",
        "year": 1880,
        "class": "Stone-uncl",
        "mass": 72
      },
      "geometry": {
        "type": "Point",
        "coordinates": [
          76.5,
          14.5
        ]
      }
    },
    {
      "type": "Feature",
      "properties": {
        "name": "Chiang Khan",
        "year": 1981,
        "class": "H6",
        "mass": 367
      },
      "geometry": {
        "type": "Point",
        "coordinates": [
          101.63333,
          17.9
        ]
      }
    },
    {
      "type": "Feature",
      "properties": {
        "name": "Chicora",
        "year": 1938,
        "class": "LL6",
        "mass": 303
      },
      "geometry": {
        "type": "Point",
        "coordinates": [
          -79.73333,
          40.93333
        ]
      }
    },
    {
      "type": "Feature",
      "properties": {
        "name": "Chisenga",
        "year": 1988,
        "class": "Iron, IIIAB",
        "mass": 3920
      },
      "geometry": {
        "type": "Point",
        "coordinates": [
          33.395,
          -10.05944
        ]
      }
    },
    {
      "type": "Feature",
      "properties": {
        "name": "Chitado",
        "year": 1966,
        "class": "L6",
        "mass": ""
      },
      "geometry": {
        "type": "Point",
        "coordinates": [
          13.96667,
          -17.35
        ]
      }
    },
    {
      "type": "Feature",
      "properties": {
        "name": "Chitenay",
        "year": 1978,
        "class": "L6",
        "mass": 4000
      },
      "geometry": {
        "type": "Point",
        "coordinates": [
          0.97667,
          47.47083
        ]
      }
    },
    {
      "type": "Feature",
      "properties": {
        "name": "Cilimus",
        "year": 1979,
        "class": "L5",
        "mass": 1600
      },
      "geometry": {
        "type": "Point",
        "coordinates": [
          108.1,
          -6.95
        ]
      }
    },
    {
      "type": "Feature",
      "properties": {
        "name": "Claxton",
        "year": 1984,
        "class": "L6",
        "mass": 1455
      },
      "geometry": {
        "type": "Point",
        "coordinates": [
          -81.87278,
          32.1025
        ]
      }
    },
    {
      "type": "Feature",
      "properties": {
        "name": "Clohars",
        "year": 1822,
        "class": "L4",
        "mass": 48.6
      },
      "geometry": {
        "type": "Point",
        "coordinates": [
          "",
          ""
        ]
      }
    },
    {
      "type": "Feature",
      "properties": {
        "name": "Colby Wisconsin",
        "year": 1917,
        "class": "L6",
        "mass": 104000
      },
      "geometry": {
        "type": "Point",
        "coordinates": [
          -90.28333,
          44.9
        ]
      }
    },
    {
      "type": "Feature",
      "properties": {
        "name": "Cold Bokkeveld",
        "year": 1838,
        "class": "CM2",
        "mass": 5200
      },
      "geometry": {
        "type": "Point",
        "coordinates": [
          19.38333,
          -33.13333
        ]
      }
    },
    {
      "type": "Feature",
      "properties": {
        "name": "Coleman",
        "year": 1994,
        "class": "L6",
        "mass": 469
      },
      "geometry": {
        "type": "Point",
        "coordinates": [
          -84.50778,
          43.76111
        ]
      }
    },
    {
      "type": "Feature",
      "properties": {
        "name": "Collescipoli",
        "year": 1890,
        "class": "H5",
        "mass": 5000
      },
      "geometry": {
        "type": "Point",
        "coordinates": [
          12.61667,
          42.53333
        ]
      }
    },
    {
      "type": "Feature",
      "properties": {
        "name": "Conquista",
        "year": 1965,
        "class": "H4",
        "mass": 20350
      },
      "geometry": {
        "type": "Point",
        "coordinates": [
          -47.55,
          -19.85
        ]
      }
    },
    {
      "type": "Feature",
      "properties": {
        "name": "Cosina",
        "year": 1844,
        "class": "H5",
        "mass": 1200
      },
      "geometry": {
        "type": "Point",
        "coordinates": [
          -100.86667,
          21.16667
        ]
      }
    },
    {
      "type": "Feature",
      "properties": {
        "name": "Cranganore",
        "year": 1917,
        "class": "L6",
        "mass": 1460
      },
      "geometry": {
        "type": "Point",
        "coordinates": [
          76.26667,
          10.2
        ]
      }
    },
    {
      "type": "Feature",
      "properties": {
        "name": "Crescent",
        "year": 1936,
        "class": "CM2",
        "mass": 78.4
      },
      "geometry": {
        "type": "Point",
        "coordinates": [
          -97.58333,
          35.95
        ]
      }
    },
    {
      "type": "Feature",
      "properties": {
        "name": "Cronstad",
        "year": 1877,
        "class": "H5",
        "mass": 3650
      },
      "geometry": {
        "type": "Point",
        "coordinates": [
          27.3,
          -27.7
        ]
      }
    },
    {
      "type": "Feature",
      "properties": {
        "name": "Cross Roads",
        "year": 1892,
        "class": "H5",
        "mass": 167
      },
      "geometry": {
        "type": "Point",
        "coordinates": [
          -78.13333,
          35.63333
        ]
      }
    },
    {
      "type": "Feature",
      "properties": {
        "name": "Crumlin",
        "year": 1902,
        "class": "L5",
        "mass": 4255
      },
      "geometry": {
        "type": "Point",
        "coordinates": [
          -6.21667,
          54.61667
        ]
      }
    },
    {
      "type": "Feature",
      "properties": {
        "name": "Cumberland Falls",
        "year": 1919,
        "class": "Aubrite",
        "mass": 17000
      },
      "geometry": {
        "type": "Point",
        "coordinates": [
          -84.35,
          36.83333
        ]
      }
    },
    {
      "type": "Feature",
      "properties": {
        "name": "Cynthiana",
        "year": 1877,
        "class": "L/LL4",
        "mass": 6000
      },
      "geometry": {
        "type": "Point",
        "coordinates": [
          -84.25,
          38.4
        ]
      }
    },
    {
      "type": "Feature",
      "properties": {
        "name": "Dahmani",
        "year": 1981,
        "class": "LL6",
        "mass": 18000
      },
      "geometry": {
        "type": "Point",
        "coordinates": [
          8.83333,
          35.61667
        ]
      }
    },
    {
      "type": "Feature",
      "properties": {
        "name": "Dandapur",
        "year": 1878,
        "class": "L6",
        "mass": 5650
      },
      "geometry": {
        "type": "Point",
        "coordinates": [
          83.96667,
          26.91667
        ]
      }
    },
    {
      "type": "Feature",
      "properties": {
        "name": "Daniel s Kuil",
        "year": 1868,
        "class": "EL6",
        "mass": 1064
      },
      "geometry": {
        "type": "Point",
        "coordinates": [
          24.56667,
          -28.2
        ]
      }
    },
    {
      "type": "Feature",
      "properties": {
        "name": "Danville",
        "year": 1868,
        "class": "L6",
        "mass": 2000
      },
      "geometry": {
        "type": "Point",
        "coordinates": [
          -87.06667,
          34.4
        ]
      }
    },
    {
      "type": "Feature",
      "properties": {
        "name": "Darmstadt",
        "year": 1804,
        "class": "H5",
        "mass": 100
      },
      "geometry": {
        "type": "Point",
        "coordinates": [
          8.65,
          49.86667
        ]
      }
    },
    {
      "type": "Feature",
      "properties": {
        "name": "Dashoguz",
        "year": 1998,
        "class": "H5",
        "mass": 7000
      },
      "geometry": {
        "type": "Point",
        "coordinates": [
          59.685,
          41.98444
        ]
      }
    },
    {
      "type": "Feature",
      "properties": {
        "name": "Daule",
        "year": 2008,
        "class": "L5",
        "mass": 6580
      },
      "geometry": {
        "type": "Point",
        "coordinates": [
          -79.95756,
          -1.87089
        ]
      }
    },
    {
      "type": "Feature",
      "properties": {
        "name": "De Cewsville",
        "year": 1887,
        "class": "H6",
        "mass": 340
      },
      "geometry": {
        "type": "Point",
        "coordinates": [
          -80,
          43
        ]
      }
    },
    {
      "type": "Feature",
      "properties": {
        "name": "Deal",
        "year": 1829,
        "class": "L6",
        "mass": 28
      },
      "geometry": {
        "type": "Point",
        "coordinates": [
          -74,
          40.25
        ]
      }
    },
    {
      "type": "Feature",
      "properties": {
        "name": "Delhi",
        "year": 1897,
        "class": "L5",
        "mass": 0.8
      },
      "geometry": {
        "type": "Point",
        "coordinates": [
          77.25,
          28.56667
        ]
      }
    },
    {
      "type": "Feature",
      "properties": {
        "name": "Demina",
        "year": 1911,
        "class": "L6",
        "mass": 16400
      },
      "geometry": {
        "type": "Point",
        "coordinates": [
          84.76667,
          51.46667
        ]
      }
    },
    {
      "type": "Feature",
      "properties": {
        "name": "Denver",
        "year": 1967,
        "class": "L6",
        "mass": 230
      },
      "geometry": {
        "type": "Point",
        "coordinates": [
          -104.93056,
          39.7825
        ]
      }
    },
    {
      "type": "Feature",
      "properties": {
        "name": "Dergaon",
        "year": 2001,
        "class": "H5",
        "mass": 12500
      },
      "geometry": {
        "type": "Point",
        "coordinates": [
          93.86667,
          26.68333
        ]
      }
    },
    {
      "type": "Feature",
      "properties": {
        "name": "Desuri",
        "year": 1962,
        "class": "H6",
        "mass": 25400
      },
      "geometry": {
        "type": "Point",
        "coordinates": [
          73.61667,
          25.73333
        ]
      }
    },
    {
      "type": "Feature",
      "properties": {
        "name": "Devgaon",
        "year": 2001,
        "class": "H3.8",
        "mass": 12000
      },
      "geometry": {
        "type": "Point",
        "coordinates": [
          81,
          19
        ]
      }
    },
    {
      "type": "Feature",
      "properties": {
        "name": "Devri-Khera",
        "year": 1994,
        "class": "L6",
        "mass": 1140
      },
      "geometry": {
        "type": "Point",
        "coordinates": [
          76.525,
          24.225
        ]
      }
    },
    {
      "type": "Feature",
      "properties": {
        "name": "Dhajala",
        "year": 1976,
        "class": "H3.8",
        "mass": 45000
      },
      "geometry": {
        "type": "Point",
        "coordinates": [
          71.42722,
          22.37778
        ]
      }
    },
    {
      "type": "Feature",
      "properties": {
        "name": "Dharwar",
        "year": 1848,
        "class": "OC",
        "mass": 1800
      },
      "geometry": {
        "type": "Point",
        "coordinates": [
          75.6,
          14.88333
        ]
      }
    },
    {
      "type": "Feature",
      "properties": {
        "name": "Dhurmsala",
        "year": 1860,
        "class": "LL6",
        "mass": 32000
      },
      "geometry": {
        "type": "Point",
        "coordinates": [
          76.46667,
          32.23333
        ]
      }
    },
    {
      "type": "Feature",
      "properties": {
        "name": "Didim",
        "year": 2007,
        "class": "H3-5",
        "mass": 3396
      },
      "geometry": {
        "type": "Point",
        "coordinates": [
          27.32997,
          37.35172
        ]
      }
    },
    {
      "type": "Feature",
      "properties": {
        "name": "Diep River",
        "year": 1906,
        "class": "L6",
        "mass": 1000
      },
      "geometry": {
        "type": "Point",
        "coordinates": [
          18.56667,
          -33.75
        ]
      }
    },
    {
      "type": "Feature",
      "properties": {
        "name": "Distrito Quebracho",
        "year": 1957,
        "class": "H4",
        "mass": 400
      },
      "geometry": {
        "type": "Point",
        "coordinates": [
          -60.46667,
          -31.88333
        ]
      }
    },
    {
      "type": "Feature",
      "properties": {
        "name": "Djati-Pengilon",
        "year": 1884,
        "class": "H6",
        "mass": 166000
      },
      "geometry": {
        "type": "Point",
        "coordinates": [
          111.5,
          -7.5
        ]
      }
    },
    {
      "type": "Feature",
      "properties": {
        "name": "Djermaia",
        "year": 1961,
        "class": "H",
        "mass": 3950
      },
      "geometry": {
        "type": "Point",
        "coordinates": [
          15.05,
          12.73333
        ]
      }
    },
    {
      "type": "Feature",
      "properties": {
        "name": "Djoumine",
        "year": 1999,
        "class": "H5-6",
        "mass": 10000
      },
      "geometry": {
        "type": "Point",
        "coordinates": [
          9.55,
          36.95
        ]
      }
    },
    {
      "type": "Feature",
      "properties": {
        "name": "Dokachi",
        "year": 1903,
        "class": "H5",
        "mass": 3840
      },
      "geometry": {
        "type": "Point",
        "coordinates": [
          90.33333,
          23.5
        ]
      }
    },
    {
      "type": "Feature",
      "properties": {
        "name": "Dolgovoli",
        "year": 1864,
        "class": "L6",
        "mass": 1600
      },
      "geometry": {
        "type": "Point",
        "coordinates": [
          25.3,
          50.75
        ]
      }
    },
    {
      "type": "Feature",
      "properties": {
        "name": "Domanitch",
        "year": 1907,
        "class": "L5",
        "mass": 438
      },
      "geometry": {
        "type": "Point",
        "coordinates": [
          29,
          40
        ]
      }
    },
    {
      "type": "Feature",
      "properties": {
        "name": "Dong Ujimqin Qi",
        "year": 1995,
        "class": "Mesosiderite",
        "mass": 128800
      },
      "geometry": {
        "type": "Point",
        "coordinates": [
          119.03333,
          45.5
        ]
      }
    },
    {
      "type": "Feature",
      "properties": {
        "name": "Donga Kohrod",
        "year": 1899,
        "class": "H6",
        "mass": 230
      },
      "geometry": {
        "type": "Point",
        "coordinates": [
          82.45,
          21.86667
        ]
      }
    },
    {
      "type": "Feature",
      "properties": {
        "name": "Dongtai",
        "year": 1970,
        "class": "LL6",
        "mass": 5500
      },
      "geometry": {
        "type": "Point",
        "coordinates": [
          120.78333,
          32.91667
        ]
      }
    },
    {
      "type": "Feature",
      "properties": {
        "name": "Doroninsk",
        "year": 1805,
        "class": "H5-7",
        "mass": 3891
      },
      "geometry": {
        "type": "Point",
        "coordinates": [
          112.3,
          51.2
        ]
      }
    },
    {
      "type": "Feature",
      "properties": {
        "name": "Dosso",
        "year": 1962,
        "class": "L6",
        "mass": 1250
      },
      "geometry": {
        "type": "Point",
        "coordinates": [
          3.16667,
          13.05
        ]
      }
    },
    {
      "type": "Feature",
      "properties": {
        "name": "Douar Mghila",
        "year": 1932,
        "class": "LL6",
        "mass": 1161
      },
      "geometry": {
        "type": "Point",
        "coordinates": [
          -6.3,
          32.33333
        ]
      }
    },
    {
      "type": "Feature",
      "properties": {
        "name": "Dowa",
        "year": 1976,
        "class": "Stone-uncl",
        "mass": 642
      },
      "geometry": {
        "type": "Point",
        "coordinates": [
          33.91667,
          -13.66667
        ]
      }
    },
    {
      "type": "Feature",
      "properties": {
        "name": "Drake Creek",
        "year": 1827,
        "class": "L6",
        "mass": 5000
      },
      "geometry": {
        "type": "Point",
        "coordinates": [
          -86.5,
          36.4
        ]
      }
    },
    {
      "type": "Feature",
      "properties": {
        "name": "Dresden Ontario",
        "year": 1939,
        "class": "H6",
        "mass": 47700
      },
      "geometry": {
        "type": "Point",
        "coordinates": [
          -82.26,
          42.52
        ]
      }
    },
    {
      "type": "Feature",
      "properties": {
        "name": "Dubrovnik",
        "year": 1951,
        "class": "L3-6",
        "mass": 1900
      },
      "geometry": {
        "type": "Point",
        "coordinates": [
          18.44167,
          42.45833
        ]
      }
    },
    {
      "type": "Feature",
      "properties": {
        "name": "Dunbogan",
        "year": 1999,
        "class": "L6",
        "mass": 30
      },
      "geometry": {
        "type": "Point",
        "coordinates": [
          152.83333,
          -31.66667
        ]
      }
    },
    {
      "type": "Feature",
      "properties": {
        "name": "Dundrum",
        "year": 1865,
        "class": "H5",
        "mass": 2270
      },
      "geometry": {
        "type": "Point",
        "coordinates": [
          -8.03333,
          52.55
        ]
      }
    },
    {
      "type": "Feature",
      "properties": {
        "name": "Dunhua",
        "year": 1976,
        "class": "Stone-uncl",
        "mass": ""
      },
      "geometry": {
        "type": "Point",
        "coordinates": [
          128.25,
          43.33333
        ]
      }
    },
    {
      "type": "Feature",
      "properties": {
        "name": "Durala",
        "year": 1815,
        "class": "L6",
        "mass": 13200
      },
      "geometry": {
        "type": "Point",
        "coordinates": [
          76.63333,
          30.3
        ]
      }
    },
    {
      "type": "Feature",
      "properties": {
        "name": "Duruma",
        "year": 1853,
        "class": "L6",
        "mass": 577
      },
      "geometry": {
        "type": "Point",
        "coordinates": [
          39.5,
          -4
        ]
      }
    },
    {
      "type": "Feature",
      "properties": {
        "name": "Duwun",
        "year": 1943,
        "class": "L6",
        "mass": 2117
      },
      "geometry": {
        "type": "Point",
        "coordinates": [
          127.26667,
          33.43333
        ]
      }
    },
    {
      "type": "Feature",
      "properties": {
        "name": "Dwaleni",
        "year": 1970,
        "class": "H4-6",
        "mass": 3230
      },
      "geometry": {
        "type": "Point",
        "coordinates": [
          31.31667,
          -27.2
        ]
      }
    },
    {
      "type": "Feature",
      "properties": {
        "name": "Dyalpur",
        "year": 1872,
        "class": "Ureilite",
        "mass": 300
      },
      "geometry": {
        "type": "Point",
        "coordinates": [
          82,
          26.25
        ]
      }
    },
    {
      "type": "Feature",
      "properties": {
        "name": "Dyarrl Island",
        "year": 1933,
        "class": "Mesosiderite-A1",
        "mass": 188
      },
      "geometry": {
        "type": "Point",
        "coordinates": [
          151,
          -3
        ]
      }
    },
    {
      "type": "Feature",
      "properties": {
        "name": "Eagle",
        "year": 1947,
        "class": "EL6",
        "mass": 10000
      },
      "geometry": {
        "type": "Point",
        "coordinates": [
          -96.47167,
          40.78167
        ]
      }
    },
    {
      "type": "Feature",
      "properties": {
        "name": "Ehole",
        "year": 1961,
        "class": "H5",
        "mass": 2400
      },
      "geometry": {
        "type": "Point",
        "coordinates": [
          15.83333,
          -17.3
        ]
      }
    },
    {
      "type": "Feature",
      "properties": {
        "name": "Eichstädt",
        "year": 1785,
        "class": "H5",
        "mass": 3000
      },
      "geometry": {
        "type": "Point",
        "coordinates": [
          11.21667,
          48.9
        ]
      }
    },
    {
      "type": "Feature",
      "properties": {
        "name": "Ekeby",
        "year": 1939,
        "class": "H4",
        "mass": 3336
      },
      "geometry": {
        "type": "Point",
        "coordinates": [
          13,
          56.03333
        ]
      }
    },
    {
      "type": "Feature",
      "properties": {
        "name": "Ekh Khera",
        "year": 1916,
        "class": "H6",
        "mass": 840
      },
      "geometry": {
        "type": "Point",
        "coordinates": [
          78.78333,
          28.26667
        ]
      }
    },
    {
      "type": "Feature",
      "properties": {
        "name": "El Idrissia",
        "year": 1989,
        "class": "L6",
        "mass": 10000
      },
      "geometry": {
        "type": "Point",
        "coordinates": [
          3.25,
          34.41667
        ]
      }
    },
    {
      "type": "Feature",
      "properties": {
        "name": "El Paso de Aguila",
        "year": 1977,
        "class": "H5",
        "mass": 17226
      },
      "geometry": {
        "type": "Point",
        "coordinates": [
          -97.37,
          25.37
        ]
      }
    },
    {
      "type": "Feature",
      "properties": {
        "name": "El Tigre",
        "year": 1993,
        "class": "L6",
        "mass": 5000
      },
      "geometry": {
        "type": "Point",
        "coordinates": [
          -103.05167,
          19.96722
        ]
      }
    },
    {
      "type": "Feature",
      "properties": {
        "name": "Elbert",
        "year": 1998,
        "class": "LL6",
        "mass": 680.5
      },
      "geometry": {
        "type": "Point",
        "coordinates": [
          -104.58817,
          39.24667
        ]
      }
    },
    {
      "type": "Feature",
      "properties": {
        "name": "Elbogen",
        "year": 1399,
        "class": "Iron, IID",
        "mass": 107000
      },
      "geometry": {
        "type": "Point",
        "coordinates": [
          12.73333,
          50.18333
        ]
      }
    },
    {
      "type": "Feature",
      "properties": {
        "name": "Elenovka",
        "year": 1951,
        "class": "L5",
        "mass": 54640
      },
      "geometry": {
        "type": "Point",
        "coordinates": [
          37.66667,
          47.83333
        ]
      }
    },
    {
      "type": "Feature",
      "properties": {
        "name": "Ellemeet",
        "year": 1925,
        "class": "Diogenite",
        "mass": 1470
      },
      "geometry": {
        "type": "Point",
        "coordinates": [
          4,
          51.75
        ]
      }
    },
    {
      "type": "Feature",
      "properties": {
        "name": "Emmaville",
        "year": 1900,
        "class": "Eucrite-mmict",
        "mass": 127
      },
      "geometry": {
        "type": "Point",
        "coordinates": [
          151.61667,
          -29.46667
        ]
      }
    },
    {
      "type": "Feature",
      "properties": {
        "name": "Enshi",
        "year": 1974,
        "class": "H5",
        "mass": 8000
      },
      "geometry": {
        "type": "Point",
        "coordinates": [
          109.5,
          30.3
        ]
      }
    },
    {
      "type": "Feature",
      "properties": {
        "name": "Ensisheim",
        "year": 1491,
        "class": "LL6",
        "mass": 127000
      },
      "geometry": {
        "type": "Point",
        "coordinates": [
          7.35,
          47.86667
        ]
      }
    },
    {
      "type": "Feature",
      "properties": {
        "name": "Épinal",
        "year": 1822,
        "class": "H5",
        "mass": 277
      },
      "geometry": {
        "type": "Point",
        "coordinates": [
          6.46667,
          48.18333
        ]
      }
    },
    {
      "type": "Feature",
      "properties": {
        "name": "Erakot",
        "year": 1940,
        "class": "CM2",
        "mass": 113
      },
      "geometry": {
        "type": "Point",
        "coordinates": [
          81.89167,
          19.03333
        ]
      }
    },
    {
      "type": "Feature",
      "properties": {
        "name": "Erevan",
        "year": 1911,
        "class": "Howardite",
        "mass": 107.2
      },
      "geometry": {
        "type": "Point",
        "coordinates": [
          44.5,
          40.3
        ]
      }
    },
    {
      "type": "Feature",
      "properties": {
        "name": "Ergheo",
        "year": 1889,
        "class": "L5",
        "mass": 20000
      },
      "geometry": {
        "type": "Point",
        "coordinates": [
          44.16667,
          1.16667
        ]
      }
    },
    {
      "type": "Feature",
      "properties": {
        "name": "Erxleben",
        "year": 1812,
        "class": "H6",
        "mass": 2250
      },
      "geometry": {
        "type": "Point",
        "coordinates": [
          11.25,
          52.21667
        ]
      }
    },
    {
      "type": "Feature",
      "properties": {
        "name": "Esnandes",
        "year": 1837,
        "class": "L6",
        "mass": 1500
      },
      "geometry": {
        "type": "Point",
        "coordinates": [
          -1.1,
          46.25
        ]
      }
    },
    {
      "type": "Feature",
      "properties": {
        "name": "Essebi",
        "year": 1957,
        "class": "C2-ung",
        "mass": 500
      },
      "geometry": {
        "type": "Point",
        "coordinates": [
          30.83333,
          2.88333
        ]
      }
    },
    {
      "type": "Feature",
      "properties": {
        "name": "Estherville",
        "year": 1879,
        "class": "Mesosiderite-A3/4",
        "mass": 320000
      },
      "geometry": {
        "type": "Point",
        "coordinates": [
          -94.83333,
          43.41667
        ]
      }
    },
    {
      "type": "Feature",
      "properties": {
        "name": "Farmington",
        "year": 1890,
        "class": "L5",
        "mass": 89400
      },
      "geometry": {
        "type": "Point",
        "coordinates": [
          -97.03333,
          39.75
        ]
      }
    },
    {
      "type": "Feature",
      "properties": {
        "name": "Farmville",
        "year": 1934,
        "class": "H4",
        "mass": 56000
      },
      "geometry": {
        "type": "Point",
        "coordinates": [
          -77.53333,
          35.55
        ]
      }
    },
    {
      "type": "Feature",
      "properties": {
        "name": "Favars",
        "year": 1844,
        "class": "H5",
        "mass": 1500
      },
      "geometry": {
        "type": "Point",
        "coordinates": [
          2.81667,
          44.38333
        ]
      }
    },
    {
      "type": "Feature",
      "properties": {
        "name": "Fayetteville",
        "year": 1934,
        "class": "H4",
        "mass": 2360
      },
      "geometry": {
        "type": "Point",
        "coordinates": [
          -94.16667,
          36.05
        ]
      }
    },
    {
      "type": "Feature",
      "properties": {
        "name": "Feid Chair",
        "year": 1875,
        "class": "H4",
        "mass": 380
      },
      "geometry": {
        "type": "Point",
        "coordinates": [
          8.45,
          36.88333
        ]
      }
    },
    {
      "type": "Feature",
      "properties": {
        "name": "Felix",
        "year": 1900,
        "class": "CO3.3",
        "mass": 3200
      },
      "geometry": {
        "type": "Point",
        "coordinates": [
          -87.16667,
          32.53333
        ]
      }
    },
    {
      "type": "Feature",
      "properties": {
        "name": "Fenghsien-Ku",
        "year": 1924,
        "class": "H5",
        "mass": 82
      },
      "geometry": {
        "type": "Point",
        "coordinates": [
          116.75,
          34.6
        ]
      }
    },
    {
      "type": "Feature",
      "properties": {
        "name": "Ferguson",
        "year": 1889,
        "class": "OC",
        "mass": 220
      },
      "geometry": {
        "type": "Point",
        "coordinates": [
          -81.41667,
          36.1
        ]
      }
    },
    {
      "type": "Feature",
      "properties": {
        "name": "Fermo",
        "year": 1996,
        "class": "H3-5",
        "mass": 10200
      },
      "geometry": {
        "type": "Point",
        "coordinates": [
          13.75333,
          43.18111
        ]
      }
    },
    {
      "type": "Feature",
      "properties": {
        "name": "Fisher",
        "year": 1894,
        "class": "L6",
        "mass": 17600
      },
      "geometry": {
        "type": "Point",
        "coordinates": [
          -96.85,
          47.81667
        ]
      }
    },
    {
      "type": "Feature",
      "properties": {
        "name": "Florence",
        "year": 1922,
        "class": "H3",
        "mass": 3640
      },
      "geometry": {
        "type": "Point",
        "coordinates": [
          -97.76667,
          30.83333
        ]
      }
    },
    {
      "type": "Feature",
      "properties": {
        "name": "Forest City",
        "year": 1890,
        "class": "H5",
        "mass": 152000
      },
      "geometry": {
        "type": "Point",
        "coordinates": [
          -93.66667,
          43.25
        ]
      }
    },
    {
      "type": "Feature",
      "properties": {
        "name": "Forest Vale",
        "year": 1942,
        "class": "H4",
        "mass": 26000
      },
      "geometry": {
        "type": "Point",
        "coordinates": [
          146.85833,
          -33.35
        ]
      }
    },
    {
      "type": "Feature",
      "properties": {
        "name": "Forksville",
        "year": 1924,
        "class": "L6",
        "mass": 6067
      },
      "geometry": {
        "type": "Point",
        "coordinates": [
          -78.08333,
          36.78333
        ]
      }
    },
    {
      "type": "Feature",
      "properties": {
        "name": "Forsbach",
        "year": 1900,
        "class": "H6",
        "mass": 240
      },
      "geometry": {
        "type": "Point",
        "coordinates": [
          7.31667,
          50.95
        ]
      }
    },
    {
      "type": "Feature",
      "properties": {
        "name": "Forsyth",
        "year": 1829,
        "class": "L6",
        "mass": 16300
      },
      "geometry": {
        "type": "Point",
        "coordinates": [
          -83.96667,
          33.01667
        ]
      }
    },
    {
      "type": "Feature",
      "properties": {
        "name": "Fort Flatters",
        "year": 1944,
        "class": "Stone-uncl",
        "mass": ""
      },
      "geometry": {
        "type": "Point",
        "coordinates": [
          7,
          28.25
        ]
      }
    },
    {
      "type": "Feature",
      "properties": {
        "name": "Frankfort stone",
        "year": 1868,
        "class": "Howardite",
        "mass": 650
      },
      "geometry": {
        "type": "Point",
        "coordinates": [
          -87.83333,
          34.48333
        ]
      }
    },
    {
      "type": "Feature",
      "properties": {
        "name": "Fuhe",
        "year": 1945,
        "class": "L5",
        "mass": 23000
      },
      "geometry": {
        "type": "Point",
        "coordinates": [
          113.56694,
          31.47556
        ]
      }
    },
    {
      "type": "Feature",
      "properties": {
        "name": "Fukutomi",
        "year": 1882,
        "class": "L5",
        "mass": 11620
      },
      "geometry": {
        "type": "Point",
        "coordinates": [
          130.2,
          33.18333
        ]
      }
    },
    {
      "type": "Feature",
      "properties": {
        "name": "Fünen",
        "year": 1654,
        "class": "Stone-uncl",
        "mass": ""
      },
      "geometry": {
        "type": "Point",
        "coordinates": [
          10.33333,
          55.33333
        ]
      }
    },
    {
      "type": "Feature",
      "properties": {
        "name": "Futtehpur",
        "year": 1822,
        "class": "L6",
        "mass": 4000
      },
      "geometry": {
        "type": "Point",
        "coordinates": [
          80.81667,
          25.95
        ]
      }
    },
    {
      "type": "Feature",
      "properties": {
        "name": "Fuyang",
        "year": 1977,
        "class": "Stone-uncl",
        "mass": 2500
      },
      "geometry": {
        "type": "Point",
        "coordinates": [
          115.9,
          32.9
        ]
      }
    },
    {
      "type": "Feature",
      "properties": {
        "name": "Galapian",
        "year": 1826,
        "class": "H6",
        "mass": 132.7
      },
      "geometry": {
        "type": "Point",
        "coordinates": [
          0.4,
          44.3
        ]
      }
    },
    {
      "type": "Feature",
      "properties": {
        "name": "Galim a",
        "year": 1952,
        "class": "LL6",
        "mass": 36.1
      },
      "geometry": {
        "type": "Point",
        "coordinates": [
          12.43333,
          7.05
        ]
      }
    },
    {
      "type": "Feature",
      "properties": {
        "name": "Galim b",
        "year": 1952,
        "class": "EH3/4-an",
        "mass": 28
      },
      "geometry": {
        "type": "Point",
        "coordinates": [
          12.43333,
          7.05
        ]
      }
    },
    {
      "type": "Feature",
      "properties": {
        "name": "Galkiv",
        "year": 1995,
        "class": "H4",
        "mass": 5000
      },
      "geometry": {
        "type": "Point",
        "coordinates": [
          30.78333,
          51.68333
        ]
      }
    },
    {
      "type": "Feature",
      "properties": {
        "name": "Gambat",
        "year": 1897,
        "class": "L6",
        "mass": 6400
      },
      "geometry": {
        "type": "Point",
        "coordinates": [
          68.53333,
          27.35
        ]
      }
    },
    {
      "type": "Feature",
      "properties": {
        "name": "Gao-Guenie",
        "year": 1960,
        "class": "H5",
        "mass": ""
      },
      "geometry": {
        "type": "Point",
        "coordinates": [
          -2.18333,
          11.65
        ]
      }
    },
    {
      "type": "Feature",
      "properties": {
        "name": "Garhi Yasin",
        "year": 1917,
        "class": "Iron, IIE",
        "mass": 380
      },
      "geometry": {
        "type": "Point",
        "coordinates": [
          68.53333,
          27.88333
        ]
      }
    },
    {
      "type": "Feature",
      "properties": {
        "name": "Garland",
        "year": 1950,
        "class": "Diogenite-pm",
        "mass": 102
      },
      "geometry": {
        "type": "Point",
        "coordinates": [
          -112.13333,
          41.68333
        ]
      }
    },
    {
      "type": "Feature",
      "properties": {
        "name": "Gashua",
        "year": 1984,
        "class": "L6",
        "mass": 4162
      },
      "geometry": {
        "type": "Point",
        "coordinates": [
          11.03333,
          12.85
        ]
      }
    },
    {
      "type": "Feature",
      "properties": {
        "name": "Gasseltepaoua",
        "year": 2000,
        "class": "H5",
        "mass": ""
      },
      "geometry": {
        "type": "Point",
        "coordinates": [
          -2.04167,
          14.15083
        ]
      }
    },
    {
      "type": "Feature",
      "properties": {
        "name": "Geidam",
        "year": 1950,
        "class": "H5",
        "mass": 725
      },
      "geometry": {
        "type": "Point",
        "coordinates": [
          11.91667,
          12.91667
        ]
      }
    },
    {
      "type": "Feature",
      "properties": {
        "name": "Gifu",
        "year": 1909,
        "class": "L6",
        "mass": 14290
      },
      "geometry": {
        "type": "Point",
        "coordinates": [
          136.88333,
          35.53333
        ]
      }
    },
    {
      "type": "Feature",
      "properties": {
        "name": "Girgenti",
        "year": 1853,
        "class": "L6",
        "mass": 18000
      },
      "geometry": {
        "type": "Point",
        "coordinates": [
          13.56667,
          37.31667
        ]
      }
    },
    {
      "type": "Feature",
      "properties": {
        "name": "Git-Git",
        "year": 1947,
        "class": "L6",
        "mass": 480
      },
      "geometry": {
        "type": "Point",
        "coordinates": [
          9.91667,
          9.6
        ]
      }
    },
    {
      "type": "Feature",
      "properties": {
        "name": "Glanerbrug",
        "year": 1990,
        "class": "L/LL5",
        "mass": 670
      },
      "geometry": {
        "type": "Point",
        "coordinates": [
          6.86667,
          52.2
        ]
      }
    },
    {
      "type": "Feature",
      "properties": {
        "name": "Glanggang",
        "year": 1939,
        "class": "H5-6",
        "mass": 1303
      },
      "geometry": {
        "type": "Point",
        "coordinates": [
          107.7,
          -7.25
        ]
      }
    },
    {
      "type": "Feature",
      "properties": {
        "name": "Glasatovo",
        "year": 1918,
        "class": "H4",
        "mass": 152000
      },
      "geometry": {
        "type": "Point",
        "coordinates": [
          37.61667,
          57.35
        ]
      }
    },
    {
      "type": "Feature",
      "properties": {
        "name": "Glatton",
        "year": 1991,
        "class": "L6",
        "mass": 767
      },
      "geometry": {
        "type": "Point",
        "coordinates": [
          -0.3,
          52.45972
        ]
      }
    },
    {
      "type": "Feature",
      "properties": {
        "name": "Gnadenfrei",
        "year": 1879,
        "class": "H5",
        "mass": 1750
      },
      "geometry": {
        "type": "Point",
        "coordinates": [
          16.76667,
          50.66667
        ]
      }
    },
    {
      "type": "Feature",
      "properties": {
        "name": "Gopalpur",
        "year": 1865,
        "class": "H6",
        "mass": 1600
      },
      "geometry": {
        "type": "Point",
        "coordinates": [
          89.05,
          24.23333
        ]
      }
    },
    {
      "type": "Feature",
      "properties": {
        "name": "Gorlovka",
        "year": 1974,
        "class": "H3.7",
        "mass": 3618
      },
      "geometry": {
        "type": "Point",
        "coordinates": [
          38.08333,
          48.28333
        ]
      }
    },
    {
      "type": "Feature",
      "properties": {
        "name": "Granes",
        "year": 1964,
        "class": "L6",
        "mass": 9000
      },
      "geometry": {
        "type": "Point",
        "coordinates": [
          2.25,
          42.9
        ]
      }
    },
    {
      "type": "Feature",
      "properties": {
        "name": "Grefsheim",
        "year": 1976,
        "class": "L5",
        "mass": 45.5
      },
      "geometry": {
        "type": "Point",
        "coordinates": [
          11,
          60.66667
        ]
      }
    },
    {
      "type": "Feature",
      "properties": {
        "name": "Grimsby",
        "year": 2009,
        "class": "H5",
        "mass": 215
      },
      "geometry": {
        "type": "Point",
        "coordinates": [
          -79.61667,
          43.2
        ]
      }
    },
    {
      "type": "Feature",
      "properties": {
        "name": "Grosnaja",
        "year": 1861,
        "class": "CV3",
        "mass": 3500
      },
      "geometry": {
        "type": "Point",
        "coordinates": [
          45.38333,
          43.66667
        ]
      }
    },
    {
      "type": "Feature",
      "properties": {
        "name": "Gross-Divina",
        "year": 1837,
        "class": "H5",
        "mass": 10500
      },
      "geometry": {
        "type": "Point",
        "coordinates": [
          18.71667,
          49.26667
        ]
      }
    },
    {
      "type": "Feature",
      "properties": {
        "name": "Grossliebenthal",
        "year": 1881,
        "class": "L6",
        "mass": 8000
      },
      "geometry": {
        "type": "Point",
        "coordinates": [
          30.58333,
          46.35
        ]
      }
    },
    {
      "type": "Feature",
      "properties": {
        "name": "Grüneberg",
        "year": 1841,
        "class": "H4",
        "mass": 1000
      },
      "geometry": {
        "type": "Point",
        "coordinates": [
          15.5,
          51.93333
        ]
      }
    },
    {
      "type": "Feature",
      "properties": {
        "name": "Grzempach",
        "year": 1910,
        "class": "H5",
        "mass": 690
      },
      "geometry": {
        "type": "Point",
        "coordinates": [
          16.63333,
          52.86667
        ]
      }
    },
    {
      "type": "Feature",
      "properties": {
        "name": "Gualeguaychú",
        "year": 1932,
        "class": "H6",
        "mass": 22000
      },
      "geometry": {
        "type": "Point",
        "coordinates": [
          -58.61667,
          -33
        ]
      }
    },
    {
      "type": "Feature",
      "properties": {
        "name": "Guangmingshan",
        "year": 1996,
        "class": "H5",
        "mass": 2910
      },